,Cityname,Cloudiness,Latitude,Longitude,Max Temp,Humidity,Wind Speed,Country,Date
0,East London,0,-33.02,27.91,48.2,70,8.05,ZA,1597374995
1,Kiryat Gat,0,31.61,34.76,75.99,42,3.44,IL,1597374996
2,Cape Town,20,-33.93,18.42,52.0,93,4.7,ZA,1597374901
3,Arraial do Cabo,0,-22.97,-42.03,71.96,84,26.69,BR,1597374702
4,Bethel,40,41.37,-73.41,72.0,94,1.81,US,1597374999
5,Marzuq,100,14.4,46.47,80.35,51,7.63,YE,1597375001
6,Saint-Philippe,40,-21.36,55.77,68.0,60,8.05,RE,1597375002
7,Caldas da Rainha,2,39.4,-9.14,63.0,100,8.01,PT,1597375004
8,Fairbanks,40,64.84,-147.72,66.2,63,5.82,US,1597374799
9,Tuktoyaktuk,75,69.45,-133.04,53.6,76,11.41,CA,1597375006
10,Rikitea,4,-23.12,-134.97,70.23,67,10.36,PF,1597374922
11,Upernavik,100,72.79,-56.15,40.87,84,12.39,GL,1597374919
12,Clyde River,90,70.47,-68.59,42.8,93,3.36,CA,1597374947
13,La Ronge,20,55.1,-105.28,66.2,48,5.82,CA,1597375011
14,Palmares,14,-8.68,-35.59,65.68,94,3.02,BR,1597374955
15,Longyearbyen,75,78.22,15.64,50.0,76,6.93,SJ,1597375014
16,Raposa,34,-6.52,-44.18,68.86,49,4.88,BR,1597375015
17,Castro,8,-24.79,-50.01,60.31,73,4.0,BR,1597374949
18,Cherskiy,93,68.75,161.3,50.63,61,3.74,RU,1597375018
19,Vostok,100,46.49,135.88,56.1,100,8.59,RU,1597374998
20,Sur,99,22.57,59.53,86.94,69,5.35,OM,1597375020
21,Puerto Ayora,97,-0.74,-90.35,66.99,98,1.99,EC,1597374917
22,Kavieng,100,-2.57,150.8,81.64,82,11.9,PG,1597375023
23,Tiksi,100,71.69,128.87,39.63,81,13.91,RU,1597375024
24,Arukutti,20,9.87,76.35,80.6,88,3.36,IN,1597375026
25,Albany,0,42.6,-73.97,73.0,68,3.87,US,1597374776
26,Vaini,75,-21.2,-175.2,75.2,88,17.22,TO,1597375029
27,Osakarovka,80,50.56,72.57,56.21,85,5.21,KZ,1597375030
28,Barrow,75,71.29,-156.79,46.4,87,12.75,US,1597375032
29,Jamestown,1,42.1,-79.24,73.4,56,10.29,US,1597374764
30,Chapais,1,49.78,-74.85,55.4,87,5.82,CA,1597375034
31,Kapaa,20,22.08,-159.32,84.2,66,13.87,US,1597374929
32,Hilo,90,19.73,-155.09,80.6,61,5.82,US,1597375037
33,Avarua,22,-21.21,-159.78,75.2,60,13.87,CK,1597375040
34,Lewiston,20,44.1,-70.21,71.6,83,3.36,US,1597375043
35,Provideniya,75,64.38,-173.3,53.6,71,15.66,RU,1597375044
36,Quba,30,41.36,48.52,66.33,69,3.69,AZ,1597375046
37,San Fernando del Valle de Catamarca,0,-28.47,-65.79,53.01,41,1.01,AR,1597375048
38,Ushuaia,75,-54.8,-68.3,30.2,92,9.17,AR,1597374801
39,New Norfolk,93,-42.78,147.06,62.01,83,1.99,AU,1597375051
40,Dongdu,73,35.85,117.7,83.1,83,12.71,CN,1597375053
41,Mataura,0,-46.19,168.86,48.99,61,1.99,NZ,1597375054
42,Lososina,100,49.0,140.31,69.01,59,13.62,RU,1597375056
43,Saskylakh,59,71.92,114.08,49.17,61,6.4,RU,1597375058
44,Imeni Babushkina,100,59.76,43.13,45.64,85,3.74,RU,1597375061
45,Souillac,20,-20.52,57.52,66.2,88,3.36,MU,1597375066
46,Erzin,0,36.96,36.2,77.0,90,1.72,TR,1597375068
47,Khatanga,0,71.97,102.5,57.9,46,15.84,RU,1597375070
48,Kudahuvadhoo,69,2.67,72.89,83.68,64,7.25,MV,1597375071
49,Torbay,90,47.67,-52.73,69.01,100,12.75,CA,1597375073
50,Hobart,75,-42.88,147.33,62.01,72,5.82,AU,1597374863
51,Langham,40,52.37,-106.97,68.0,42,5.82,CA,1597375076
52,Broome,75,42.25,-75.83,71.6,56,5.82,US,1597374879
53,Bluff,0,-46.6,168.33,48.99,61,1.99,NZ,1597375075
54,Klyuchi,98,52.27,79.17,63.34,75,9.26,RU,1597375079
55,Edirne,0,41.68,26.56,64.9,87,2.62,TR,1597375081
56,Port Elizabeth,0,-33.92,25.57,50.0,81,8.05,ZA,1597375083
57,Sungurlu,0,40.17,34.37,57.7,78,4.32,TR,1597375085
58,Derzhavīnsk,52,51.1,66.32,60.8,68,2.01,KZ,1597375089
59,Busselton,95,-33.65,115.33,59.0,78,5.01,AU,1597374918
60,Sola,0,-13.88,167.55,78.94,81,18.75,VU,1597375092
61,Port Alfred,0,-33.59,26.89,52.07,75,7.49,ZA,1597374932
62,Kaitangata,33,-46.28,169.85,46.99,54,5.01,NZ,1597375095
63,Poum,0,-20.23,164.02,71.22,67,13.49,NC,1597375097
64,Natchez,1,31.56,-91.4,75.2,100,5.88,US,1597375099
65,Yellowknife,75,62.46,-114.35,60.8,67,6.93,CA,1597375086
66,Qaanaaq,91,77.48,-69.36,35.78,83,4.65,GL,1597375102
67,Novopokrovka,12,49.84,36.55,57.2,67,6.71,UA,1597375104
68,Jaciara,0,-15.97,-54.97,74.34,41,2.28,BR,1597375106
69,Thompson,75,55.74,-97.86,59.0,93,3.36,CA,1597374919
70,Kīhei,40,20.79,-156.47,87.8,52,19.46,US,1597375093
71,Nikolskoye,0,59.7,30.79,48.99,81,2.48,RU,1597375111
72,Bud,1,39.45,-86.18,78.01,78,7.25,US,1597375113
73,Chui,0,-33.7,-53.46,44.92,81,4.83,UY,1597375116
74,Senekal,0,-28.32,27.62,33.42,85,2.19,ZA,1597375118
75,Oktyabr'skiy,95,54.48,53.47,56.41,82,5.91,RU,1597375119
76,Yulara,0,-25.24,130.99,68.0,28,4.7,AU,1597375120
77,Dubti,100,11.74,41.09,87.55,46,2.3,ET,1597375122
78,Khovd,95,48.01,91.64,68.4,27,1.25,MN,1597375123
79,Kahului,40,20.89,-156.47,87.8,52,19.46,US,1597375126
80,Carnarvon,0,-24.87,113.63,69.8,40,4.7,AU,1597375004
81,Ustynivka,0,47.96,32.54,54.84,71,7.09,UA,1597375129
82,Kruisfontein,0,-34.0,24.73,44.38,84,5.44,ZA,1597375131
83,Punta Arenas,1,-53.15,-70.92,28.4,74,2.24,CL,1597375032
84,Hermanus,2,-34.42,19.23,39.99,94,10.2,ZA,1597375134
85,Oranjemund,0,-28.55,16.43,54.14,73,5.66,NA,1597375137
86,Faanui,13,-16.48,-151.75,78.31,83,18.03,PF,1597375139
87,Aswān,39,24.09,32.91,82.76,27,8.52,EG,1597375143
88,Geraldton,28,-28.77,114.6,64.4,68,12.75,AU,1597375148
89,Kumul,59,42.8,93.45,88.32,15,9.04,CN,1597375150
90,Pontianak,0,-0.03,109.33,90.19,53,2.21,ID,1597375152
91,Atuona,49,-9.8,-139.03,78.1,79,19.46,PF,1597375154
92,College,75,64.86,-147.8,66.2,48,3.36,US,1597374859
93,Dikson,41,73.51,80.55,46.13,88,3.06,RU,1597374942
94,Usinsk,82,65.99,57.53,46.56,89,8.7,RU,1597375158
95,Bredasdorp,0,-34.53,20.04,46.4,87,9.17,ZA,1597375059
96,Ribeira Grande,12,38.52,-28.7,71.44,73,4.12,PT,1597374924
97,‘Ewa Beach,1,21.32,-158.01,87.8,51,8.05,US,1597375163
98,Renfrew,90,55.87,-4.39,57.2,93,6.93,GB,1597375165
99,Palana,100,59.12,159.97,58.24,62,6.11,RU,1597375168
100,Batagay-Alyta,100,67.8,130.41,39.27,88,4.43,RU,1597375170
101,Vestmannaeyjar,100,63.44,-20.27,51.73,95,8.41,IS,1597375172
102,Sambava,97,-14.27,50.17,69.64,81,10.25,MG,1597375174
103,Salta,0,-24.79,-65.41,39.2,64,1.48,AR,1597375157
104,Cabinda,96,-5.55,12.2,72.75,83,8.88,AO,1597375177
105,Ndélé,80,8.41,20.65,69.1,97,0.74,CF,1597375179
106,Biak,88,-0.91,122.88,82.72,58,5.3,ID,1597375180
107,Port Hedland,0,-20.32,118.57,80.6,34,12.75,AU,1597375182
108,Saint-Paul,90,-21.01,55.27,68.0,64,8.05,RE,1597375184
109,Nuuk,0,64.18,-51.72,42.8,70,6.93,GL,1597375186
110,Departamento de Maldonado,0,-34.67,-54.92,46.99,87,8.05,UY,1597375187
111,Gamba,84,-2.65,10.0,72.48,90,7.81,GA,1597375189
112,Saint George,1,37.1,-113.58,96.8,15,8.05,US,1597375092
113,Miranda,75,3.25,-76.23,73.4,78,2.24,CO,1597375191
114,Pasni,99,25.26,63.47,82.45,81,4.65,PK,1597375193
115,Muisne,70,0.6,-80.03,73.54,88,10.89,EC,1597375194
116,Butaritari,10,3.07,172.79,82.45,66,0.65,KI,1597375081
117,Lebu,99,-37.62,-73.65,48.99,86,11.79,CL,1597375069
118,Cidreira,66,-30.18,-50.21,58.24,95,3.98,BR,1597375198
119,The Valley,40,18.22,-63.06,84.2,74,9.17,AI,1597375200
120,Sinnamary,17,5.38,-52.95,79.7,86,13.22,GF,1597375201
121,Chicama,95,-7.84,-79.15,60.17,87,6.33,PE,1597375203
122,Mehrān,0,33.12,46.16,69.8,30,4.7,IR,1597375204
123,Boueni,0,-12.9,45.08,75.2,69,17.22,YT,1597375206
124,Egvekinot,100,66.32,-179.17,52.75,80,6.89,RU,1597375207
125,Mossamedes,0,-15.2,12.15,59.7,85,1.45,AO,1597375209
126,Casper,1,42.87,-106.31,81.0,9,12.75,US,1597375027
127,Hirtshals,0,57.59,9.96,64.04,70,9.64,DK,1597374967
128,Sinegor'ye,96,62.08,150.48,54.75,71,3.36,RU,1597375213
129,Maniitsoq,94,65.42,-52.9,43.86,71,1.43,GL,1597375214
130,Mehamn,75,71.04,27.85,51.8,81,6.93,NO,1597375135
131,Daudnagar,75,25.03,84.4,86.0,79,6.93,IN,1597375217
132,Mahébourg,20,-20.41,57.7,66.2,88,3.36,MU,1597375218
133,Mar del Plata,0,-38.0,-57.56,46.99,93,4.7,AR,1597374970
134,Iqaluit,75,63.75,-68.51,46.4,75,5.82,CA,1597375221
135,Mitchell,20,43.71,-98.03,80.6,78,13.87,US,1597375222
136,Yekaterinoslavka,100,50.37,129.11,62.73,96,22.1,RU,1597375224
137,Lavrentiya,95,65.58,-171.0,54.36,63,10.56,RU,1597375225
138,Ancud,52,-41.87,-73.82,44.01,75,11.41,CL,1597375227
139,Bafia,94,4.75,11.23,67.41,98,1.81,CM,1597375228
140,Morón,0,-34.65,-58.62,54.0,49,5.03,AR,1597375109
141,Anchorage,40,61.22,-149.9,66.2,52,4.7,US,1597375231
142,Zeya,100,53.75,127.27,73.62,49,7.2,RU,1597375232
143,Virginia Beach,75,36.85,-75.98,79.0,88,3.36,US,1597375022
144,Merauke,42,-8.47,140.33,81.72,74,15.88,ID,1597375235
145,Dailly,90,46.2,7.03,66.2,88,0.81,CH,1597375236
146,Tuatapere,0,-46.13,167.68,48.99,61,1.99,NZ,1597375238
147,Viesca,40,25.35,-102.8,95.0,21,4.7,MX,1597375239
148,Joensuu,99,62.6,29.76,48.2,100,1.12,FI,1597375241
149,Plettenberg Bay,0,-34.05,23.37,50.34,73,3.38,ZA,1597374987
150,Ormara,99,25.21,64.64,83.71,80,7.61,PK,1597375243
151,Aklavik,75,68.22,-135.01,55.4,71,9.17,CA,1597375245
152,Dalvik,1,65.97,-18.53,50.0,57,13.87,IS,1597375246
153,Polunochnoye,1,60.87,60.42,49.93,65,1.43,RU,1597375248
154,Bedworth,90,52.48,-1.47,61.0,93,11.41,GB,1597375249
155,Roald,90,62.58,6.13,57.0,93,4.7,NO,1597375251
156,Ossora,100,59.24,163.07,56.34,78,13.89,RU,1597375252
157,Kaeo,68,-35.1,173.78,59.0,3,5.01,NZ,1597375253
158,Igrim,0,63.19,64.42,52.54,61,2.71,RU,1597375255
159,Shimoda,20,34.67,138.95,87.8,70,11.41,JP,1597375256
160,Saint-Augustin,10,51.23,-58.65,61.02,79,15.77,CA,1597375258
161,São João da Barra,0,-21.64,-41.05,72.55,80,21.07,BR,1597375259
162,Oroville,1,39.51,-121.56,95.0,19,5.82,US,1597375261
163,Gornopravdinsk,40,60.05,69.9,52.27,64,9.04,RU,1597375262
164,Pacific Grove,1,36.62,-121.92,69.8,64,3.36,US,1597375034
165,Porto-Novo,20,6.5,2.6,75.2,94,9.17,BJ,1597375265
166,Elliot Lake,90,46.38,-82.63,71.6,78,4.7,CA,1597375266
167,Hasaki,20,35.73,140.83,97.0,59,9.17,JP,1597375019
168,Praia,75,14.92,-23.51,78.8,88,9.17,CV,1597375269
169,Leningradskiy,70,69.38,178.42,60.55,53,11.63,RU,1597375270
170,Sharjah city,20,25.36,55.4,91.4,75,6.93,AE,1597375143
171,Marang,40,5.21,103.21,77.0,94,2.24,MY,1597375273
172,Beloha,32,-25.17,45.05,60.76,87,4.56,MG,1597375274
173,Miyako,84,39.64,141.95,77.18,66,5.39,JP,1597375276
174,Saint-Pierre,40,-21.34,55.48,68.0,60,8.05,RE,1597375277
175,Kokkola,99,63.84,23.13,59.0,100,8.05,FI,1597375279
176,Puerto Escondido,56,15.85,-97.07,81.36,76,4.54,MX,1597375280
177,Pundaguitan,94,6.37,126.17,82.81,72,3.18,PH,1597375282
178,Wanning,92,18.8,110.4,85.33,72,10.29,CN,1597375283
179,Uvalde,1,29.37,-99.77,91.0,40,8.05,US,1597375285
180,Port Shepstone,0,-30.74,30.45,54.41,71,8.86,ZA,1597375286
181,Kununurra,75,-15.77,128.73,91.4,23,10.29,AU,1597375184
182,‘Āhuimanu,20,21.44,-157.84,87.8,65,13.87,US,1597375289
183,Chimbote,100,-9.09,-78.58,60.39,85,9.57,PE,1597375290
184,Mount Gambier,75,-37.83,140.77,59.0,82,12.75,AU,1597375262
185,Kanigoro,21,-8.13,112.22,85.84,59,8.1,ID,1597375293
186,Norman Wells,75,65.28,-126.83,64.4,72,10.29,CA,1597375068
187,Kalemie,97,-5.95,29.19,68.2,39,2.19,CD,1597375295
188,Kjøllefjord,75,70.95,27.35,51.8,81,6.93,NO,1597375297
189,Mercedes,0,-34.65,-59.43,48.99,43,1.99,AR,1597375298
190,Ponta do Sol,40,32.67,-17.1,71.6,68,9.17,PT,1597375300
191,Santa Catalina,94,9.33,122.86,84.42,68,3.56,PH,1597375301
192,Airai,96,-8.93,125.41,75.76,46,3.53,TL,1597375302
193,Pasco,1,28.29,-82.42,79.0,88,1.86,US,1597375304
194,Huarmey,51,-10.07,-78.15,59.72,85,8.34,PE,1597375109
195,Nouakchott,20,18.09,-15.98,82.4,78,10.29,MR,1597375166
196,Itarema,40,-2.92,-39.92,77.85,82,17.69,BR,1597375308
197,Hithadhoo,16,-0.6,73.08,82.63,71,4.41,MV,1597375309
198,Khudumelapye,0,-23.88,24.75,46.69,45,6.44,BW,1597375311
199,Inuvik,75,68.35,-133.72,55.4,71,8.05,CA,1597375068
200,Narsaq,100,60.92,-46.05,46.4,93,4.7,GL,1597375313
201,Caconda,0,-13.73,15.07,51.01,44,5.03,AO,1597375315
202,Coquimbo,14,-29.95,-71.34,50.0,87,6.22,CL,1597375317
203,Cockburn Town,85,21.46,-71.14,82.94,83,17.81,TC,1597375260
204,Bilma,1,18.69,12.92,89.42,28,2.21,NE,1597375071
205,Coffs Harbour,0,-30.3,153.13,75.0,64,11.41,AU,1597375324
206,Litovko,100,49.24,135.17,64.49,94,4.03,RU,1597375325
207,Vila Velha,0,-20.33,-40.29,71.6,78,6.93,BR,1597375327
208,Flin Flon,14,54.77,-101.86,57.09,72,5.64,CA,1597375075
209,Bathsheba,40,13.22,-59.52,82.4,74,17.22,BB,1597375332
210,Baruun-Urt,23,46.68,113.28,67.66,56,10.18,MN,1597375334
211,Praia,75,14.92,-23.51,78.8,88,9.17,CV,1597375269
212,Donji grad,17,45.81,15.98,70.0,93,2.57,HR,1597375244
213,Makakilo City,1,21.35,-158.09,87.8,51,8.05,US,1597375251
214,Yarim,100,14.3,44.38,61.12,65,2.71,YE,1597375339
215,Lata,8,40.16,-8.33,63.0,96,1.01,PT,1597375341
216,Naze,75,28.37,129.48,87.8,79,5.82,JP,1597375342
217,São Miguel do Araguaia,0,-13.28,-50.16,74.57,33,4.18,BR,1597375344
218,Esperance,21,-33.87,121.9,55.4,93,12.75,AU,1597375346
219,Santa Cruz de Tenerife,75,28.47,-16.25,66.99,88,13.87,ES,1597375259
220,Luau,0,-10.71,22.22,57.51,34,3.69,AO,1597375350
221,Natal,75,-5.79,-35.21,75.2,83,11.41,BR,1597375351
222,Sembakung,29,3.82,117.25,93.22,55,1.57,ID,1597375125
223,Calamar,100,10.25,-74.91,78.93,89,4.74,CO,1597375354
224,Arman',82,59.7,150.17,58.57,80,9.26,RU,1597375356
225,Zhangaözen,5,43.3,52.8,76.3,22,6.46,KZ,1597375357
226,Flinders,100,-34.58,150.86,68.0,74,5.01,AU,1597375360
227,Guerrero Negro,0,27.98,-114.06,72.82,62,16.93,MX,1597375361
228,Te Anau,17,-45.42,167.72,42.35,68,1.48,NZ,1597375364
229,Isangel,90,-19.55,169.27,77.0,69,13.87,VU,1597375366
230,Lorengau,99,-2.02,147.27,82.15,78,9.55,PG,1597375367
231,Eyl,59,7.98,49.82,76.28,64,21.3,SO,1597375369
232,Pevek,100,69.7,170.31,40.86,89,4.21,RU,1597375370
233,São Filipe,11,14.9,-24.5,77.18,87,6.91,CV,1597375372
234,Cross Lanes,75,38.42,-81.79,77.0,78,5.82,US,1597375374
235,Truro,90,50.27,-5.05,64.4,100,5.82,GB,1597375375
236,Machiques,76,10.06,-72.55,77.47,80,6.93,VE,1597375377
237,Villarrica,1,-25.75,-56.43,52.56,95,2.46,PY,1597375378
238,Nelson Bay,68,-32.72,152.15,66.99,67,4.7,AU,1597375379
239,Grindavik,75,63.84,-22.43,48.2,81,11.41,IS,1597375381
240,Tasiilaq,0,65.61,-37.64,46.4,39,5.82,GL,1597375383
241,Mount Isa,40,-20.73,139.5,87.8,27,14.99,AU,1597375385
242,Kalmunai,99,7.42,81.82,82.24,65,1.74,LK,1597375248
243,Stromness,100,58.97,-3.3,51.8,87,2.24,GB,1597375388
244,Kuril'sk,54,45.23,147.88,57.22,76,7.31,RU,1597375391
245,Matagami,1,49.75,-77.63,51.8,87,4.43,CA,1597375393
246,Avera,90,33.19,-82.53,78.8,84,11.41,US,1597375394
247,Río Gallegos,5,-51.62,-69.22,26.6,92,9.17,AR,1597375396
248,Los Llanos de Aridane,8,28.66,-17.92,71.6,78,12.75,ES,1597375398
249,Safi,32,32.3,-9.24,66.99,89,11.23,MA,1597375400
250,Faya,46,18.39,42.45,69.8,56,3.24,SA,1597375256
251,Suluktu,40,39.93,69.57,78.8,44,2.24,KG,1597375403
252,Filingué,100,14.35,3.32,81.99,68,9.84,NE,1597375405
253,Pandharpur,100,17.67,75.33,73.44,85,8.86,IN,1597375407
254,Vryburg,0,-26.96,24.73,31.48,90,2.33,ZA,1597375409
255,Benguela,0,-12.58,13.41,66.47,89,1.16,AO,1597375410
256,Sabang,83,5.89,95.32,83.12,67,3.53,ID,1597375411
257,Khorramabad,0,33.49,48.36,69.8,35,2.24,IR,1597375413
258,Tegul'det,8,57.31,88.17,70.52,68,3.36,RU,1597375414
259,Krosno,0,49.69,21.77,55.0,97,3.69,PL,1597375416
260,Port Hardy,90,50.7,-127.42,59.0,82,3.36,CA,1597375418
261,Kalashnikovo,1,57.28,35.23,44.26,97,4.94,RU,1597375420
262,Georgiyevskoye,99,58.73,45.02,48.2,72,7.83,RU,1597375292
263,Saint-Leu,40,-21.15,55.28,68.0,60,8.05,RE,1597375423
264,Praia da Vitória,20,38.73,-27.07,71.6,83,3.78,PT,1597375424
265,Talnakh,30,69.49,88.4,73.4,49,15.66,RU,1597375427
266,Ilulissat,98,69.22,-51.1,42.8,52,2.24,GL,1597375429
267,Allāhganj,16,27.55,79.68,84.42,80,8.37,IN,1597375431
268,Kuito,0,-12.38,16.93,52.34,42,4.38,AO,1597375432
269,Imbituva,10,-25.23,-50.6,58.23,99,0.74,BR,1597375434
270,Zolotukhino,90,52.08,36.38,51.8,87,8.95,RU,1597375436
271,Kloulklubed,75,7.04,134.26,86.0,70,9.17,PW,1597375437
272,Turukhansk,47,65.82,87.98,74.07,60,14.27,RU,1597375439
273,Yumen,0,40.28,97.2,82.4,20,13.09,CN,1597375440
274,Bubaque,100,11.28,-15.83,78.53,84,12.03,GW,1597375442
275,San Patricio,100,19.22,-104.7,80.87,73,2.44,MX,1597375444
276,Atikokan,77,48.76,-91.62,71.17,66,10.69,CA,1597375446
277,Severo-Kuril'sk,100,50.68,156.12,54.54,72,7.72,RU,1597375448
278,Ayagoz,100,47.97,80.44,65.89,58,5.86,KZ,1597375450
279,Dera Ghazi Khan,0,30.06,70.63,99.88,40,11.83,PK,1597375400
280,Bambous Virieux,20,-20.34,57.76,68.0,88,3.36,MU,1597375453
281,Saint Paul Harbor,20,57.79,-152.41,57.2,71,5.82,US,1597375417
282,George Town,20,5.41,100.34,86.0,78,3.36,MY,1597375164
283,Pisco,0,-13.7,-76.22,60.01,87,4.7,PE,1597375457
284,Husavik,22,66.04,-17.34,50.0,57,13.87,IS,1597375459
285,Bandarbeyla,100,9.49,50.81,75.85,71,26.71,SO,1597375460
286,Londrina,54,-23.31,-51.16,66.72,68,0.83,BR,1597375462
287,Hervey Bay,39,-25.3,152.85,75.99,76,5.99,AU,1597375463
288,Bata,40,1.86,9.77,77.0,100,6.93,GQ,1597375464
289,Hong Kong,40,22.29,114.16,89.6,62,8.05,HK,1597375466
290,Sosnovo-Ozerskoye,84,52.52,111.54,60.55,77,5.08,RU,1597375467
291,Agüimes,40,27.91,-15.45,71.6,73,21.92,ES,1597375469
292,Nhamundá,100,-2.19,-56.71,80.67,55,3.74,BR,1597375470
293,Noumea,8,-22.28,166.46,75.2,50,16.11,NC,1597375471
294,Bonavista,87,48.65,-53.11,68.0,72,4.0,CA,1597375473
295,Hulan Ergi,97,47.2,123.63,64.51,87,8.75,CN,1597375475
296,Katsuura,20,35.13,140.3,97.0,66,8.05,JP,1597375477
297,Chokurdakh,100,70.63,147.92,40.3,71,5.28,RU,1597375478
298,Kutum,51,14.2,24.67,73.08,75,7.9,SD,1597375480
299,Seoul,90,37.57,126.98,84.2,79,17.63,KR,1597375430
300,Taltal,8,-25.4,-70.48,51.35,76,3.56,CL,1597375402
301,Mandalgovi,0,45.76,106.27,70.36,43,2.17,MN,1597375484
302,Lidköping,98,58.51,13.16,55.4,100,3.36,SE,1597375485
303,Luanda,75,-8.84,13.23,69.8,94,4.7,AO,1597375464
304,Saint Anthony,1,45.02,-93.22,80.6,78,8.05,US,1597375488
305,Ardakān,0,32.31,54.02,87.8,14,4.7,IR,1597375489
306,San Quintín,0,30.48,-115.95,73.08,62,10.45,MX,1597375491
307,Eskilstuna,65,59.37,16.51,60.01,93,3.36,SE,1597375492
308,Lagoa,75,39.05,-27.98,71.8,76,2.55,PT,1597375493
309,Hualmay,82,-11.1,-77.61,59.07,84,7.87,PE,1597375495
310,Rudnogorsk,72,57.26,103.75,66.34,62,8.43,RU,1597375496
311,Saint-Joseph,40,-21.37,55.62,68.0,60,8.05,RE,1597375498
312,Ca Mau,100,9.18,105.15,78.24,87,8.43,VN,1597375499
313,Nantucket,20,41.28,-70.1,69.8,94,6.64,US,1597375494
314,Bengkulu,97,-3.8,102.27,83.52,61,1.68,ID,1597375502
315,Nueva Guinea,100,11.69,-84.46,73.87,97,5.12,NI,1597375503
316,Tura,86,25.52,90.22,87.06,70,0.76,IN,1597375504
317,Strathroy,18,42.96,-81.62,69.01,74,7.61,CA,1597375506
318,Palu,68,-0.89,119.87,90.9,50,1.95,ID,1597375507
319,Gamovo,75,57.87,56.11,53.6,71,8.95,RU,1597375508
320,Malé,75,4.17,73.51,84.2,79,6.93,MV,1597375510
321,Batemans Bay,100,-35.72,150.18,64.0,75,5.01,AU,1597375511
322,Inhambane,23,-23.86,35.38,65.3,74,11.05,MZ,1597375512
323,Norrtälje,77,59.76,18.7,64.0,88,5.01,SE,1597375514
324,Extrema,9,-22.85,-46.32,71.6,56,4.7,BR,1597375515
325,Burnie,100,-41.07,145.92,55.0,92,7.0,AU,1597375516
326,Erenhot,0,43.65,111.98,76.24,39,3.36,CN,1597375517
327,Gizo Government Station,86,-8.1,156.84,83.37,76,12.77,SB,1597375519
328,Pathein,100,16.78,94.73,77.76,92,12.73,MM,1597375520
329,Griffith,1,41.53,-87.42,75.0,78,5.82,US,1597375370
330,Rundu,0,-17.93,19.77,54.64,34,5.97,NA,1597375522
331,Warrnambool,0,-38.38,142.48,60.01,75,7.0,AU,1597375524
332,Tautira,20,-17.73,-149.15,80.6,74,5.82,PF,1597375525
333,Konza,75,-1.74,37.13,60.8,87,5.82,KE,1597375526
334,Lompoc,1,34.64,-120.46,68.0,72,3.36,US,1597375527
335,Rocha,0,-34.48,-54.33,43.43,77,5.01,UY,1597375529
336,Berlevåg,75,70.86,29.09,51.8,81,6.93,NO,1597375530
337,Jalu,0,29.03,21.55,75.38,51,7.29,LY,1597375531
338,Port-Gentil,100,-0.72,8.78,75.6,86,16.02,GA,1597375532
339,Mackay,0,-21.15,149.2,82.0,61,11.41,AU,1597375534
340,Stornoway,25,58.21,-6.39,54.0,93,5.82,GB,1597375535
341,Cabo San Lucas,0,22.89,-109.91,86.0,65,8.01,MX,1597375290
342,Waingapu,33,-9.66,120.26,85.05,60,11.72,ID,1597375538
343,Olafsvik,0,64.89,-23.71,48.38,77,15.08,IS,1597375539
344,Kundla,100,21.33,71.3,78.48,88,13.58,IN,1597375540
345,Along,100,28.17,94.77,75.54,90,0.78,IN,1597375542
346,Bilibino,100,68.05,166.44,53.11,68,3.8,RU,1597375543
347,Januária,67,-15.48,-44.37,72.07,53,5.64,BR,1597375544
348,Broken Hill,38,-31.95,141.43,59.0,67,5.82,AU,1597375546
349,Sørland,100,67.67,12.69,55.18,85,11.32,NO,1597375547
350,Zhigansk,39,66.77,123.37,51.15,59,21.97,RU,1597375548
351,São José da Coroa Grande,12,-8.9,-35.15,72.79,82,9.42,BR,1597375550
352,Genhe,100,50.78,121.52,60.3,71,8.66,CN,1597375551
353,Sawākin,59,19.11,37.33,89.94,54,3.94,SD,1597375552
354,Coahuayana Viejo,99,18.73,-103.68,79.0,79,1.25,MX,1597375554
355,Chifeng,0,42.27,118.96,83.84,37,18.81,CN,1597375555
356,Warri,100,5.52,5.75,72.95,89,3.89,NG,1597375556
357,Shitanjing,100,39.23,106.34,81.41,22,7.76,CN,1597375558
358,Codrington,0,-38.27,141.97,60.84,69,12.17,AU,1597375559
359,Buraidah,25,26.33,43.98,77.0,41,5.82,SA,1597375560
360,Kaniama,73,-7.57,24.18,61.99,30,4.21,CD,1597375562
361,Guatire,70,10.48,-66.54,72.0,78,1.03,VE,1597375563
362,Stafford,100,52.81,-2.12,61.0,75,4.0,GB,1597375564
363,Novovasylivka,0,46.83,35.75,59.36,62,3.98,UA,1597375566
364,Ayan,100,56.45,138.17,63.19,65,1.32,RU,1597375567
365,Kwinana,90,-32.25,115.77,60.01,93,4.7,AU,1597375568
366,Russell,1,32.35,-85.2,82.4,78,3.38,US,1597375570
367,Palmer,20,42.16,-72.33,69.01,88,1.54,US,1597375572
368,Jieshi,1,22.81,115.83,85.1,72,4.85,CN,1597375573
369,Bogorodsk,90,56.1,43.52,51.8,100,13.42,RU,1597375575
370,Zachepylivka,22,49.19,35.24,52.38,84,6.98,UA,1597375576
371,Ust-Kuyga,100,70.02,135.6,43.02,75,10.65,RU,1597375577
372,Socorro,40,31.65,-106.3,96.8,16,6.93,US,1597375578
373,Fare,0,-16.7,-151.02,78.71,81,16.08,PF,1597375580
374,Kayes,20,14.0,-11.0,80.6,88,4.7,ML,1597375581
375,Altay,100,47.87,88.12,71.91,30,6.78,CN,1597375582
376,Laureles,0,26.11,-97.49,84.99,82,1.99,US,1597375584
377,Presidencia Roque Sáenz Peña,0,-26.79,-60.44,53.02,83,4.45,AR,1597375585
378,West Bay,2,19.37,-81.42,84.99,81,1.01,KY,1597375586
379,Beranang,20,2.87,101.87,84.2,74,6.93,MY,1597375588
380,Margate,6,51.38,1.39,70.0,94,3.0,GB,1597375352
381,Srednekolymsk,100,67.45,153.68,47.08,76,14.58,RU,1597375590
382,Port Blair,100,11.67,92.75,83.35,79,19.64,IN,1597375326
383,Panabá,64,21.28,-88.27,77.52,90,4.83,MX,1597375593
384,Houma,100,29.6,-90.72,78.01,82,1.99,US,1597375495
385,Três Lagoas,57,-20.75,-51.68,76.19,42,5.79,BR,1597375320
386,Çubuk,0,40.24,33.03,63.0,67,5.82,TR,1597375596
387,Kriel,0,-26.27,29.23,36.0,86,2.35,ZA,1597375598
388,Klaksvík,86,62.23,-6.59,51.8,93,2.24,FO,1597375599
389,Tual,46,-5.67,132.75,79.45,85,15.86,ID,1597375600
390,Kagadi,100,0.96,30.8,62.15,98,1.12,UG,1597375602
391,Dukat,95,62.55,155.55,55.42,65,12.62,RU,1597375603
392,Devonport,96,-41.17,146.35,57.0,80,10.0,AU,1597375604
393,Madison Heights,40,42.49,-83.11,77.0,53,6.93,US,1597375381
394,Hailey,5,43.52,-114.32,73.4,23,8.05,US,1597375607
395,Muravlenko,100,63.79,74.52,49.01,85,19.46,RU,1597375608
396,Ketchikan,90,55.34,-131.65,53.6,100,11.41,US,1597375580
397,Levice,98,48.22,18.61,73.0,92,4.12,SK,1597375611
398,Vestmanna,77,62.16,-7.17,51.8,93,2.24,FO,1597375612
399,Ugoofaaru,100,5.67,73.0,82.27,75,8.61,MV,1597375613
400,Taoudenni,88,22.68,-3.98,95.4,34,10.07,ML,1597375614
401,Dauphin,90,51.15,-100.05,62.6,93,2.24,CA,1597375616
402,Avon Park,1,27.6,-81.51,78.8,100,5.7,US,1597375617
403,Puerto Baquerizo Moreno,99,-0.9,-89.6,66.4,94,10.47,EC,1597375618
404,Nome,1,64.5,-165.41,62.01,67,13.87,US,1597375619
405,Sabzawār,0,36.21,57.68,81.48,20,7.52,IR,1597375621
406,Iwanai,100,42.97,140.51,65.89,90,5.5,JP,1597375622
407,Moose Factory,1,51.26,-80.61,51.8,93,4.7,CA,1597375623
408,Beihai,23,21.48,109.1,85.19,72,10.85,CN,1597375624
409,Pimentel,83,-6.84,-79.93,60.58,91,11.48,PE,1597375626
410,Aktau,40,43.65,51.2,73.4,60,4.47,KZ,1597375627
411,Dodoma,74,-6.17,35.74,57.02,93,5.32,TZ,1597375628
412,Shubarkuduk,87,49.14,56.49,70.39,63,15.57,KZ,1597375630
413,Yar-Sale,93,66.83,70.83,50.92,66,10.16,RU,1597375631
414,Esim,68,4.87,-2.24,73.54,85,6.93,GH,1597375634
415,Wuhu,99,31.34,118.38,95.0,53,13.42,CN,1597375635
416,Kamaishi,75,39.27,141.88,82.4,69,8.05,JP,1597375636
417,Enugu,100,6.44,7.49,70.25,90,7.54,NG,1597375637
418,Awjilah,0,29.11,21.29,75.9,45,7.07,LY,1597375639
419,Tagusao,38,9.19,117.81,84.49,65,1.63,PH,1597375640
420,Meulaboh,99,4.14,96.13,84.06,57,4.07,ID,1597375642
421,Melfi,5,41.0,15.65,75.99,73,2.24,IT,1597375643
422,Bowen,0,-20.02,148.23,81.0,54,4.7,AU,1597375482
423,Nanortalik,100,60.14,-45.24,44.49,88,0.98,GL,1597375645
424,Portland,1,45.52,-122.68,73.99,38,5.82,US,1597375055
425,Alta Floresta,5,-9.88,-56.09,75.67,38,4.81,BR,1597375648
426,Adré,77,13.47,22.2,70.84,91,5.19,TD,1597375649
427,Idaho Falls,1,43.47,-112.03,75.2,22,16.11,US,1597375650
428,Krasnosel'kup,27,65.7,82.47,74.84,58,8.81,RU,1597375652
429,Traverse City,40,44.76,-85.62,73.0,83,6.42,US,1597375478
430,Sallanches,94,45.94,6.63,55.0,93,1.9,FR,1597375583
431,Gouré,31,13.98,10.27,77.0,80,3.0,NE,1597375655
432,Ulladulla,75,-35.35,150.47,66.0,59,6.93,AU,1597375657
433,Ponta Delgada,75,37.73,-25.67,71.6,83,1.12,PT,1597375658
434,Batouri,64,4.43,14.37,66.38,98,2.82,CM,1597375659
435,Vao,0,-22.67,167.48,69.82,74,15.28,NC,1597375661
436,Umm Kaddadah,0,13.6,26.69,80.69,65,10.76,SD,1597375662
437,Butte,1,39.65,-121.57,95.0,19,5.82,US,1597375663
438,San Cristobal,47,7.77,-72.22,66.16,83,3.51,VE,1597375664
439,Hambantota,40,6.12,81.12,80.6,94,9.17,LK,1597375666
440,Zhezkazgan,75,47.8,67.71,64.4,68,8.95,KZ,1597375667
441,Half Moon Bay,1,37.46,-122.43,84.2,77,8.05,US,1597375487
442,Namatanai,100,-3.67,152.43,83.17,74,6.8,PG,1597375391
443,Mozhaysk,10,55.5,36.03,45.43,97,5.93,RU,1597375670
444,Henties Bay,0,-22.12,14.28,52.0,93,3.0,NA,1597375672
445,Ladan,79,50.52,32.58,48.15,86,6.6,UA,1597375673
446,Vardø,40,70.37,31.11,51.8,71,4.7,NO,1597375674
447,Somerset,20,40.57,-74.55,73.99,100,3.6,US,1597375675
448,Auki,87,-8.77,160.7,83.16,77,2.46,SB,1597375677
449,Polyarny,100,69.2,33.45,44.6,93,4.47,RU,1597375678
450,Oswego,1,43.45,-76.15,69.8,83,6.06,US,1597375680
451,Buenaventura,100,3.88,-77.03,75.76,94,4.36,CO,1597375681
452,Thunder Bay,75,48.4,-89.32,64.4,88,6.93,CA,1597375514
453,Skjervøy,99,70.03,20.97,54.18,86,6.31,NO,1597375683
454,Maltahöhe,0,-24.83,16.98,43.7,50,7.38,NA,1597375685
455,Port Lincoln,6,-34.73,135.87,61.0,67,13.69,AU,1597375686
456,Kulebaki,100,55.41,42.53,50.52,95,12.19,RU,1597375687
457,Bandundu Province,88,-3.32,17.37,81.68,54,3.8,CD,1597375688
458,Mikkeli,90,61.69,27.27,52.0,100,4.07,FI,1597375690
459,Sakakah,0,29.97,40.21,80.6,30,3.36,SA,1597375691
460,Sisophon,100,13.59,102.97,81.43,79,5.75,KH,1597375692
461,Dudinka,54,69.41,86.18,73.4,49,15.66,RU,1597375693
462,Sol'vychegodsk,80,61.33,46.92,47.8,82,2.17,RU,1597375695
463,Iquique,90,-20.22,-70.14,60.8,67,1.12,CL,1597375564
464,Leh,0,34.17,77.58,63.1,39,6.96,IN,1597375697
465,Tofte,0,59.54,10.56,60.01,93,3.36,NO,1597375698
466,Southampton,56,50.9,-1.4,66.0,88,4.0,GB,1597375699
467,Greenfield,20,42.96,-88.01,72.0,83,3.36,US,1597375701
468,Kralendijk,0,12.15,-68.27,84.2,74,18.34,BQ,1597375702
469,Sitka,90,57.05,-135.33,57.2,67,3.09,US,1597375703
470,Novikovo,93,51.15,37.89,50.67,92,7.29,RU,1597375704
471,Lázaro Cárdenas,99,17.96,-102.2,81.41,77,2.84,MX,1597375706
472,Palekastro,0,35.2,26.25,77.47,76,27.56,GR,1597375707
473,Northam,100,51.03,-4.22,64.99,95,1.99,GB,1597375708
474,Mersing,20,2.43,103.84,75.2,94,3.36,MY,1597375710
475,Gaoua,26,10.3,-3.25,72.23,83,2.66,BF,1597375711
476,Ringsted,92,55.44,11.79,57.2,100,1.12,DK,1597375712
477,Ferzikovo,90,54.52,36.76,53.6,93,4.47,RU,1597375713
478,Mareeba,29,-17.0,145.43,82.99,50,7.0,AU,1597375714
479,Banning,66,33.93,-116.88,90.0,27,1.99,US,1597375716
480,Imbituba,75,-28.24,-48.67,62.6,100,5.82,BR,1597375656
481,Taunggyi,100,20.78,97.03,66.52,100,6.87,MM,1597375718
482,Kenai,1,60.55,-151.26,66.2,45,8.05,US,1597375719
483,Maridi,79,4.92,29.47,65.25,95,2.21,SS,1597375721
484,Gladstone,8,-23.85,151.25,77.0,53,11.41,AU,1597375722
485,Bollnäs,78,61.35,16.39,58.78,88,2.24,SE,1597375723
486,Vila,0,42.03,-8.16,54.0,91,1.59,PT,1597375724
487,Lufilufi,17,-13.87,-171.6,84.0,83,8.01,WS,1597375725
488,Belyy Yar,24,53.6,91.39,68.0,64,2.24,RU,1597375727
489,Banda Aceh,92,5.56,95.32,85.66,58,4.25,ID,1597375728
490,Najrān,77,17.49,44.13,87.8,20,4.43,SA,1597375729
491,Lüderitz,0,-26.65,15.16,61.52,32,8.68,NA,1597375731
492,Bac Lieu,100,9.29,105.72,78.28,88,11.83,VN,1597375487
493,Quatre Cocos,20,-20.21,57.76,68.0,88,3.36,MU,1597375733
494,Panlaitan,100,12.12,119.85,82.06,70,1.16,PH,1597375735
495,Hay River,75,60.82,-115.8,55.4,100,6.93,CA,1597375737
496,Kamenka,66,51.32,42.77,55.99,88,12.86,RU,1597375738
497,Saint Paul,1,44.94,-93.09,80.01,78,8.05,US,1597375540
498,Moyale,100,3.52,39.06,63.91,74,11.54,KE,1597375740
499,Pincher Creek,1,49.48,-113.95,62.01,36,10.29,CA,1597375742
500,Qasigiannguit,97,68.82,-51.19,42.8,52,2.24,GL,1597375743
501,Mosetse,0,-20.75,26.65,52.92,41,16.44,BW,1597375744
502,Gazli,0,40.13,63.45,82.31,15,13.94,UZ,1597375745
503,Kindu,81,-2.95,25.95,69.94,95,2.8,CD,1597375747
504,Aksarka,21,66.56,67.8,50.59,64,4.47,RU,1597375748
505,Jiangyou,76,31.77,104.72,81.21,76,5.01,CN,1597375750
506,Jos,100,9.92,8.9,64.78,100,4.09,NG,1597375751
507,Paamiut,0,61.99,-49.67,42.64,83,18.86,GL,1597375752
508,Sorong,48,-0.88,131.25,81.75,80,7.27,ID,1597375753
509,Labuan,20,5.28,115.24,87.01,74,2.24,MY,1597375755
510,Banjar,40,-8.19,114.97,84.2,89,14.99,ID,1597375756
511,Worland,1,44.02,-107.96,81.0,21,10.29,US,1597375757
512,Florence,31,43.77,11.25,70.0,77,2.24,IT,1597375759
513,Beringovskiy,83,63.05,179.32,59.59,58,6.11,RU,1597375760
514,Pitimbu,20,-7.47,-34.81,69.8,100,3.36,BR,1597375761
515,Deputatsky,99,69.3,139.9,39.42,78,8.19,RU,1597375762
516,Luangwa,0,-15.62,30.42,55.24,56,1.43,ZM,1597375763
517,Morgan City,1,29.7,-91.21,75.2,94,3.85,US,1597375765
518,Grand-Santi,56,4.25,-54.38,73.98,95,2.64,GF,1597375766
519,Alyangula,40,-13.85,136.42,82.4,69,10.29,AU,1597375768
520,Morros,0,-9.45,-46.3,71.08,48,5.84,BR,1597375770
521,Khanskaya,18,44.68,39.96,57.25,69,4.79,RU,1597375771
522,Fort Nelson,75,58.81,-122.7,60.8,55,10.29,CA,1597375580
523,Golden,85,39.76,-105.22,82.0,19,7.83,US,1597375773
524,Juneau,90,58.3,-134.42,55.99,87,6.93,US,1597375775
525,Athens,0,37.98,23.72,80.01,47,7.38,GR,1597375357
526,Aitape,100,-3.14,142.35,80.87,83,5.55,PG,1597375777
527,Adrar,65,20.5,-10.07,92.89,35,7.9,MR,1597375779
528,Mahina,20,-17.51,-149.49,80.6,74,5.82,PF,1597375781
529,Rajanpur,3,29.1,70.33,94.64,51,14.03,PK,1597375782
530,Izmaylovo,35,53.72,47.25,51.04,93,3.15,RU,1597375783
531,Solnechnyy,100,50.72,136.63,72.03,57,5.7,RU,1597375784
532,Shangqiu,99,34.45,115.65,82.58,88,12.12,CN,1597375623
533,Port Keats,0,-14.25,129.55,89.08,47,6.35,AU,1597375787
534,Kushālgarh,100,23.2,74.45,76.42,93,13.98,IN,1597375788
535,Saint-François,71,46.42,3.91,68.0,82,5.82,FR,1597375789
536,Fareydūnshahr,0,32.94,50.12,65.59,31,3.13,IR,1597375791
537,Damietta,0,31.42,31.81,78.8,83,5.82,EG,1597375792
538,Shizunai-furukawachō,100,42.33,142.37,67.06,83,9.82,JP,1597375793
539,Black River,20,18.03,-77.85,82.4,83,9.17,JM,1597375794
540,Arklow,64,52.79,-6.14,62.01,95,9.04,IE,1597375796
541,Tapa,90,59.26,25.96,57.99,100,4.7,EE,1597375797
542,Ahipara,7,-35.17,173.17,59.22,64,6.8,NZ,1597375798
543,Salalah,90,17.02,54.09,77.0,100,4.7,OM,1597375799
544,Caravelas,0,-17.71,-39.25,69.01,90,4.07,BR,1597375801
545,Shakawe,0,-18.37,21.85,51.75,38,3.67,BW,1597375802
546,Muros,78,42.78,-9.06,60.01,93,1.01,ES,1597375803
547,Kholmogory,20,64.22,41.66,41.0,100,6.71,RU,1597375805
548,Katobu,1,-4.94,122.53,87.49,52,7.23,ID,1597375806
549,Laguna,1,38.42,-121.42,95.0,20,8.05,US,1597375807
550,Palmares do Sul,66,-30.26,-50.51,57.43,96,2.06,BR,1597375809
551,Aranjuez,2,40.03,-3.6,75.99,64,2.24,ES,1597375810
552,Tessalit,78,20.2,1.01,90.9,42,3.87,ML,1597375811
553,Vidim,44,56.41,103.11,71.96,55,6.42,RU,1597375812
554,Brewster,40,41.4,-73.62,73.0,94,1.36,US,1597375810
555,Oyem,75,1.6,11.58,65.89,99,3.18,GA,1597375815
556,Xambioá,1,-6.41,-48.54,75.97,43,3.04,BR,1597375816
557,Bonthe,22,7.53,-12.51,73.76,79,2.46,SL,1597375818
558,Nador,0,35.17,-2.93,73.4,40,1.12,MA,1597375819
559,Gorontalo,26,0.54,123.06,88.9,47,7.18,ID,1597375820
560,Vaitape,9,-16.52,-151.75,79.27,81,17.16,PF,1597375821
561,Olinda,40,-8.01,-34.86,75.2,78,8.05,BR,1597375823
562,Assiut,0,27.18,31.18,78.8,50,9.17,EG,1597375824
563,Coyhaique,40,-45.58,-72.07,32.0,95,4.72,CL,1597375825
